var phitsanulok = {
	"WatYai":{ 
		"name": "วัดพระศรีรัตนมหาธาตุฯ (วัดใหญ่)", "province": "พิษณุโลก", "lat": 16.823762, "lng": 100.262439
	},
	"ThaweeFolkMuseum":{ 
		"name": "พิพิธภัณฑ์พื้นบ้านจ่าทวี", "province": "พิษณุโลก", "lat": 16.806002, "lng": 100.267466
	},
	"WatChulamanee":{ 
		"name": "วัดจุฬามณี", "province": "พิษณุโลก", "lat": 16.787483, "lng": 100.216875
	},
	"SanSomdej":{ 
		"name": "ศาลสมเด็จพระนเรศวรมหาราช", "province": "พิษณุโลก", "lat": 16.829885, "lng": 100.261380
	},
	"MuseumThirdArmy":{ 
		"name": "พิพิธภัณฑ์ทหารกองทัพภาคที่ 3", "province": "พิษณุโลก", "lat": 16.833942, "lng": 100.262228
	},
	"KaengSopha":{ 
		"name": "น้ำตกแก่งโสภา", "province": "พิษณุโลก", "lat": 16.870711, "lng": 100.833821
	},
	"Phuhinrongkla":{ 
		"name": "อุทยานแห่งชาติภูหินร่องกล้า", "province": "พิษณุโลก", "lat": 17.003883, "lng": 100.994248
	},
	"PhuSoiDao":{ 
		"name": "วนอุทยานภูสอยดาว", "province": "พิษณุโลก", "lat": 17.695953, "lng": 100.947030
	}
};

var phetchabun = {
	"WatPhaKaenKaew":{ 
		"name": "วัดพระธาตุผาซ่อนแก้ว", "province": "เพชรบูรณ์", "lat": 16.789298, "lng": 101.050892
	},
	"KhaoKhoPalace":{ 
		"name": "พระตำหนักเขาค้อ", "province": "เพชรบูรณ์", "lat": 16.553007, "lng": 100.976017
	},
	"JadeeKhaoKho":{ 
		"name": "เจดีย์พระบรมสารีริกธาตุเขาค้อ", "province": "เพชรบูรณ์", "lat": 16.579280, "lng": 100.991382
	},
	"PhoKhunPhaMuang":{ 
		"name": "อนุสาวรีย์พ่อขุนผาเมือง", "province": "เพชรบูรณ์", "lat": 16.753196, "lng": 101.203016
	},
	"ThungSalaengLuang":{ 
		"name": "อุทยานแห่งชาติทุ่งแสลงหลวง", "province": "เพชรบูรณ์", "lat": 16.579056, "lng": 100.883030
	},
	/*
	"KhaoKho":{ 
		"name": "เขาค้อ", "province": "เพชรบูรณ์", "lat": , "lng":
	},
	*/
	"PhuTubberk":{ 
		"name": "ภูทับเบิก", "province": "เพชรบูรณ์", "lat": 16.896943, "lng": 101.105678
	},
	"RaiKunnanChul":{ 
		"name": "ไร่กำนันจุล", "province": "เพชรบูรณ์", "lat": 16.265864, "lng": 101.048350
	},
	"BNFarm":{ 
		"name": "ไร่ บี.เอ็น", "province": "เพชรบูรณ์", "lat": 16.743253, "lng": 101.018112
	},
	"PhuKaewAdven":{ 
		"name": "ภูแก้ว แอดเวนเจอร์ปาร์ค", "province": "เพชรบูรณ์", "lat": 16.781070, "lng": 101.006081
	}
};

var chiangmai = {
	"KrubaSrivichai ":{ 
		"name": "อนุเสาวรีย์ครูบาเจ้าศรีวิชัย", "province": "เชียงใหม่", "lat": 18.812865, "lng": 98.946103
	},
	"DoiSuthep":{ 
		"name": "พระบรมธาตุดอยสุเทพ", "province": "เชียงใหม่", "lat": 18.804882, "lng": 98.921571
	},
	"ChiangMaiZoo":{ 
		"name": "สวนสัตว์เชียงใหม่", "province": "เชียงใหม่", "lat": 18.809601, "lng": 98.947521
	},
	"InthanonAgrRoyal":{ 
		"name": "สถานีเกษตรหลวงอินทนนท์", "province": "เชียงใหม่", "lat": 18.542556, "lng": 98.519353
	},
	"BhubingPalace":{ 
		"name": "พระตำหนักภูพิงค์ราชนิเวศน์", "province": "เชียงใหม่", "lat": 18.806500, "lng": 98.899012
	},
	"DoiInthanon":{ 
		"name": "ดอยอินทนนท์", "province": "เชียงใหม่", "lat": 18.588040, "lng": 98.487057
	}
};

var chiangrai = {
	"WatRongKhun":{ 
		"name": "วัดร่องขุ่น", "province": "เชียงราย", "lat": 19.824222, "lng": 99.763135
	},
	"DoiTungRoyal":{ 
		"name": "พระตำหนักดอยตุง", "province": "เชียงราย", "lat": 20.287090, "lng": 99.809519
	},
	"WatPhraKaew":{ 
		"name": "วัดพระแก้ว", "province": "เชียงราย", "lat": 20.265893, "lng": 100.406355
	},
	"MaesaiMarket":{ 
		"name": "ตลาดแม่สาย", "province": "เชียงราย", "lat": 20.444419, "lng": 99.880465
	},
	"BoonRawdFarm":{ 
		"name": "ไร่บุญรอด", "province": "เชียงราย", "lat": 19.852950, "lng": 99.743424
	},
	"BlackHouse":{ 
		"name": "พิพิธภัณฑ์บ้านดำ", "province": "เชียงราย", "lat": 19.992078, "lng": 99.860694
	},
	"GoldenTriangle":{ 
		"name": "สามเหลี่ยมทองคำ", "province": "เชียงราย", "lat": 20.352895, "lng": 100.082965
	}
};